{
  "up": [
    {
      "name": "낭월공영차고지기점",
      "sid": "13820",
      "lat": 36.26705,
      "lng": 127.47933
    },
    {
      "name": "낭월공영차고지",
      "sid": "9005538",
      "lat": 36.268803,
      "lng": 127.47771
    },
    {
      "name": "남대전종합물류단지",
      "sid": "13780",
      "lat": 36.272915,
      "lng": 127.47184
    },
    {
      "name": "석천들마을아파트",
      "sid": "13410",
      "lat": 36.27638,
      "lng": 127.467415
    },
    {
      "name": "산내초등학교",
      "sid": "13460",
      "lat": 36.278145,
      "lng": 127.46925
    },
    {
      "name": "e편한세상아파트",
      "sid": "13440",
      "lat": 36.280586,
      "lng": 127.46806
    },
    {
      "name": "산내주공아파트",
      "sid": "13390",
      "lat": 36.28429,
      "lng": 127.466095
    },
    {
      "name": "오투그란데아파트",
      "sid": "13690",
      "lat": 36.28764,
      "lng": 127.464714
    },
    {
      "name": "운전면허시험장",
      "sid": "13670",
      "lat": 36.290543,
      "lng": 127.46309
    },
    {
      "name": "대성동",
      "sid": "13650",
      "lat": 36.294106,
      "lng": 127.461685
    },
    {
      "name": "고산사입구",
      "sid": "13630",
      "lat": 36.2969,
      "lng": 127.460045
    },
    {
      "name": "하늘채2차아파트",
      "sid": "13570",
      "lat": 36.298443,
      "lng": 127.45881
    },
    {
      "name": "은어송초등학교",
      "sid": "10410",
      "lat": 36.301514,
      "lng": 127.45674
    },
    {
      "name": "남대전변전소",
      "sid": "10340",
      "lat": 36.30386,
      "lng": 127.45436
    },
    {
      "name": "가오주공아파트",
      "sid": "10320",
      "lat": 36.30562,
      "lng": 127.45257
    },
    {
      "name": "가오동",
      "sid": "10300",
      "lat": 36.308857,
      "lng": 127.450066
    },
    {
      "name": "천동주공아파트",
      "sid": "10280",
      "lat": 36.310764,
      "lng": 127.448616
    },
    {
      "name": "천동",
      "sid": "10260",
      "lat": 36.311913,
      "lng": 127.44531
    },
    {
      "name": "천석교",
      "sid": "10230",
      "lat": 36.312794,
      "lng": 127.441505
    },
    {
      "name": "효동네거리",
      "sid": "10180",
      "lat": 36.31648,
      "lng": 127.44009
    },
    {
      "name": "인동현대아파트",
      "sid": "10130",
      "lat": 36.319553,
      "lng": 127.438934
    },
    {
      "name": "신인동주민센터",
      "sid": "10090",
      "lat": 36.323513,
      "lng": 127.437065
    },
    {
      "name": "원동네거리",
      "sid": "10070",
      "lat": 36.32757,
      "lng": 127.43485
    },
    {
      "name": "대전역/역전시장",
      "sid": "10040",
      "lat": 36.32953,
      "lng": 127.43368
    },
    {
      "name": "목척교",
      "sid": "12450",
      "lat": 36.330685,
      "lng": 127.43078
    },
    {
      "name": "으능정이거리",
      "sid": "23250",
      "lat": 36.329296,
      "lng": 127.42716
    },
    {
      "name": "대전테크노파크",
      "sid": "20270",
      "lat": 36.327652,
      "lng": 127.42272
    },
    {
      "name": "나라키움청사/3.8기념관",
      "sid": "20220",
      "lat": 36.328785,
      "lng": 127.420654
    },
    {
      "name": "국립농산물품질관리원",
      "sid": "20200",
      "lat": 36.330765,
      "lng": 127.41955
    },
    {
      "name": "목동더샵리슈빌",
      "sid": "20100",
      "lat": 36.33311,
      "lng": 127.41556
    },
    {
      "name": "목동네거리",
      "sid": "20500",
      "lat": 36.335426,
      "lng": 127.412254
    },
    {
      "name": "선병원",
      "sid": "20460",
      "lat": 36.337505,
      "lng": 127.40965
    },
    {
      "name": "중촌SK뷰아파트",
      "sid": "20430",
      "lat": 36.339207,
      "lng": 127.4075
    },
    {
      "name": "중촌동과선교",
      "sid": "23680",
      "lat": 36.342793,
      "lng": 127.409424
    },
    {
      "name": "중촌주공2단지",
      "sid": "23710",
      "lat": 36.344543,
      "lng": 127.41145
    },
    {
      "name": "푸르지오아파트",
      "sid": "23720",
      "lat": 36.34668,
      "lng": 127.40969
    },
    {
      "name": "중촌주공2단지",
      "sid": "20490",
      "lat": 36.34463,
      "lng": 127.4113
    }
  ],
  "down": [
    {
      "name": "중촌주공2단지",
      "sid": "9002651",
      "lat": 36.343216,
      "lng": 127.410576
    },
    {
      "name": "중촌동과선교",
      "sid": "23510",
      "lat": 36.342884,
      "lng": 127.40902
    },
    {
      "name": "하늘아파트",
      "sid": "20450",
      "lat": 36.338833,
      "lng": 127.40783
    },
    {
      "name": "선병원",
      "sid": "20360",
      "lat": 36.33753,
      "lng": 127.40931
    },
    {
      "name": "목동네거리",
      "sid": "20420",
      "lat": 36.334953,
      "lng": 127.4127
    },
    {
      "name": "은행선화동주민센터",
      "sid": "20110",
      "lat": 36.332493,
      "lng": 127.41676
    },
    {
      "name": "국립농산물품질관리원",
      "sid": "20180",
      "lat": 36.330883,
      "lng": 127.419235
    },
    {
      "name": "나라키움청사/3.8기념관",
      "sid": "20210",
      "lat": 36.328552,
      "lng": 127.420425
    },
    {
      "name": "중앙로역4번출구",
      "sid": "20680",
      "lat": 36.327847,
      "lng": 127.42407
    },
    {
      "name": "으능정이거리",
      "sid": "20050",
      "lat": 36.3291,
      "lng": 127.427444
    },
    {
      "name": "대전역",
      "sid": "12470",
      "lat": 36.330814,
      "lng": 127.43195
    },
    {
      "name": "중앙시장",
      "sid": "10030",
      "lat": 36.329105,
      "lng": 127.43359
    },
    {
      "name": "원동네거리",
      "sid": "10080",
      "lat": 36.32597,
      "lng": 127.435356
    },
    {
      "name": "인동네거리",
      "sid": "10100",
      "lat": 36.32267,
      "lng": 127.43716
    },
    {
      "name": "인동현대아파트",
      "sid": "10110",
      "lat": 36.319748,
      "lng": 127.43852
    },
    {
      "name": "효동네거리",
      "sid": "10170",
      "lat": 36.316166,
      "lng": 127.43991
    },
    {
      "name": "천석교",
      "sid": "10240",
      "lat": 36.312378,
      "lng": 127.441696
    },
    {
      "name": "천동",
      "sid": "10250",
      "lat": 36.311775,
      "lng": 127.44478
    },
    {
      "name": "천동주공아파트",
      "sid": "10270",
      "lat": 36.310314,
      "lng": 127.4487
    },
    {
      "name": "가오동",
      "sid": "10310",
      "lat": 36.308,
      "lng": 127.45078
    },
    {
      "name": "가오주공아파트",
      "sid": "10330",
      "lat": 36.30534,
      "lng": 127.45268
    },
    {
      "name": "남대전변전소",
      "sid": "10350",
      "lat": 36.303745,
      "lng": 127.454315
    },
    {
      "name": "은어송초등학교",
      "sid": "10400",
      "lat": 36.30094,
      "lng": 127.45711
    },
    {
      "name": "은어송하늘채리버뷰",
      "sid": "13590",
      "lat": 36.298847,
      "lng": 127.45835
    },
    {
      "name": "고산사입구",
      "sid": "13620",
      "lat": 36.296646,
      "lng": 127.46001
    },
    {
      "name": "운전면허시험장",
      "sid": "13660",
      "lat": 36.29111,
      "lng": 127.46269
    },
    {
      "name": "오투그란데아파트",
      "sid": "13680",
      "lat": 36.287144,
      "lng": 127.464775
    },
    {
      "name": "산내주공아파트",
      "sid": "13400",
      "lat": 36.283302,
      "lng": 127.46642
    },
    {
      "name": "e편한세상아파트",
      "sid": "13430",
      "lat": 36.281143,
      "lng": 127.46756
    },
    {
      "name": "산내초등학교",
      "sid": "13450",
      "lat": 36.278748,
      "lng": 127.46878
    },
    {
      "name": "석천들마을아파트",
      "sid": "13420",
      "lat": 36.276493,
      "lng": 127.46816
    },
    {
      "name": "남대전종합물류단지",
      "sid": "13790",
      "lat": 36.272728,
      "lng": 127.47134
    },
    {
      "name": "낭월공영차고지",
      "sid": "13820",
      "lat": 36.270203,
      "lng": 127.47669
    }
  ]
}